# LAS format log file from PETREL
# Project units are specified as depth units
#==================================================================
~Version information
VERS.   2.0:
WRAP.   NO:
#==================================================================
~Well
STRT .m      0.0000000000 :
STOP .m      3438.9060000 :
STEP .m     0.00000000 :
NULL .        -999.250000 :
COMP.           : COMPANY
WELL.  ISH1051   : WELL
FLD.            : FIELD
LOC.            : LOCATION
SRVC.           : SERVICE COMPANY
DATE.  Sunday, February 22 2015 15:16:31   : DATE
PROV.           : PROVINCE
UWI.      : UNIQUE WELL ID
API.            : API NUMBER
#==================================================================
~Curve
DEPT .m                   : DEPTH
SONI .us/ft               : SONI
GR .gAPI                  : GR
LLD .ohm.m                : LLD
LLM .ohm.m                : LLM
Acousticimpedance1 .kPa.s/m : Acoustic impedance 1
Reflectioncoefficients1 .  : Reflection coefficients 1
~Parameter
#==================================================================
~Ascii
# ...
 3394.2527000 75.900001526 74.437500000 2.3457000256 2.1640999317  -999.250000  -999.250000
 3394.4053000 76.699996948 71.437500000 2.3612999916 2.2147998810  -999.250000  -999.250000
 3394.5576000 78.900001526 69.125000000 2.3633000851 2.3066000938  -999.250000  -999.250000
 3394.7100000 78.099998474 71.750000000 2.4003999233 2.3847999573  -999.250000  -999.250000
 3394.8623000 76.800003052 77.875000000 2.5137000084 2.5058999062  -999.250000  -999.250000
 3395.0149000 74.900001526 76.562500000 2.7030999660 2.7715001106  -999.250000  -999.250000
 3395.1672000 72.300003052 73.687500000 2.9628999233 3.1366999149  -999.250000  -999.250000
 3395.3196000 69.900001526 62.531200409 3.2655999660 3.6308999062  -999.250000  -999.250000
 3395.4719000 68.199996948 52.281200409 3.6561999321 4.2069997787  -999.250000  -999.250000
 3395.6245000 67.099998474 43.687500000 4.0507998466 4.7500000000  -999.250000  -999.250000
 3395.7769000 67.500000000 42.593799591 4.5625000000 5.2617001534  -999.250000  -999.250000
 3395.9292000 67.199996948 40.437500000 5.3319997787 5.6483998299  -999.250000  -999.250000
 3396.0815000 67.199996948 40.375000000 5.8125000000 5.9805002213  -999.250000  -999.250000
 3396.2339000 67.000000000 37.968799591 6.0352001190 6.2539000511  -999.250000  -999.250000
 3396.3865000 68.099998474 40.156200409 6.2460999489 6.7656002045  -999.250000  -999.250000
 3396.5388000 69.000000000 34.250000000 6.4882998466 7.2733998299  -999.250000  -999.250000
 3396.6912000 69.699996948 33.718799591 6.7031002045 7.7382998466  -999.250000  -999.250000
 3396.8435000 69.900001526 34.531200409 6.9882998466 8.0546998978  -999.250000  -999.250000
 3396.9961000 68.900001526 40.718799591 7.5039000511 8.4453001022  -999.250000  -999.250000
 3397.1484000 69.000000000 42.781200409 7.9569997787 8.9609003067  -999.250000  -999.250000
 3397.3008000 68.900001526 41.562500000 8.4843997955 9.6328001022  -999.250000  -999.250000
 3397.4531000 68.400001526 41.125000000 9.0078001022 10.367199898  -999.250000  -999.250000
 3397.6057000 69.400001526 37.406200409 9.3750000000 10.804699898  -999.250000  -999.250000
 3397.7581000 69.599998474 39.250000000 9.5468997955 10.867199898  -999.250000  -999.250000
 3397.9104000 69.400001526 38.937500000 9.7968997955 10.835900307  -999.250000  -999.250000
 3398.0627000 68.099998474 39.093799591 10.085900307 11.093799591  -999.250000  -999.250000
 3398.2151000 69.400001526 36.843799591 10.156200409 11.218799591  -999.250000  -999.250000
 3398.3677000 68.900001526 35.531200409 9.6875000000 11.109399796  -999.250000  -999.250000
 3398.5200000 68.300003052 35.437500000 8.5859003067 10.453100204  -999.250000  -999.250000
 3398.6724000 67.500000000 32.156200409 6.9960999489 8.5000000000  -999.250000  -999.250000
 3398.8247000 69.800003052 32.343799591 5.7343997955 6.1289000511  -999.250000  -999.250000
 3398.9773000 72.199996948 37.031200409 5.0194997787 4.7188000679  -999.250000  -999.250000
 3399.1296000 74.000000000 43.781200409 4.6367001534 3.8847999573  -999.250000  -999.250000
 3399.2820000 77.000000000 47.875000000 4.4727001190 3.5116999149  -999.250000  -999.250000
 3399.4343000 78.900001526 47.687500000 4.3632998466 3.5957000256  -999.250000  -999.250000
 3399.5869000 80.000000000 52.062500000 4.1914000511 3.9667999744  -999.250000  -999.250000
 3399.7393000 81.000000000 55.562500000 4.1406002045 4.3319997787  -999.250000  -999.250000
 3399.8916000 79.199996948 57.500000000 4.1835999489 4.5625000000  -999.250000  -999.250000
 3400.0439000 79.500000000 58.750000000 4.4531002045 4.8242001534  -999.250000  -999.250000
 3400.1963000 80.000000000 56.281200409 4.9688000679 5.1016001701  -999.250000  -999.250000
 3400.3489000 79.300003052 55.500000000 5.3867001534 5.2305002213  -999.250000  -999.250000
 3400.5012000 78.500000000 56.093799591 5.5977001190 5.1522998810  -999.250000  -999.250000
 3400.6536000 78.099998474 56.906200409 5.7891001701 5.1757998466  -999.250000  -999.250000
 3400.8059000 80.099998474 58.187500000 5.8477001190 5.2578001022  -999.250000  -999.250000
 3400.9585000 78.199996948 56.375000000 5.7539000511 5.3828001022  -999.250000  -999.250000
 3401.1108000 79.900001526 52.593799591 5.7069997787 5.5272998810  -999.250000  -999.250000
 3401.2632000 77.800003052 52.312500000 5.7305002213 5.5625000000  -999.250000  -999.250000
 3401.4155000 77.000000000 46.593799591 5.8319997787 5.5938000679  -999.250000  -999.250000
 3401.5681000 75.699996948 53.500000000 6.2031002045 5.8281002045  -999.250000  -999.250000
 3401.7205000 73.199996948 50.843799591 6.3007998466 6.0703001022  -999.250000  -999.250000
 3401.8728000 72.099998474 52.718799591 5.9647998810 6.0117001534  -999.250000  -999.250000
 3402.0251000 70.800003052 49.312500000 5.5117001534 5.8046998978  -999.250000  -999.250000
 3402.1775000 70.900001526 48.656200409 5.0468997955 5.4141001701  -999.250000  -999.250000
 3402.3301000 73.199996948 52.156200409 4.6914000511 4.8867001534  -999.250000  -999.250000
 3402.4824000 74.800003052 51.312500000 4.4727001190 4.4022998810  -999.250000  -999.250000
 3402.6348000 76.500000000 55.562500000 4.3516001701 3.9921998978  -999.250000  -999.250000
 3402.7871000 76.000000000 56.406200409 4.2694997787 4.0156002045  -999.250000  -999.250000
 3402.9397000 75.199996948 57.531200409 4.1132998466 4.3632998466  -999.250000  -999.250000
 3403.0920000 69.400001526 53.687500000 3.8926000595 4.5272998810  -999.250000  -999.250000
 3403.2444000 62.900001526 46.062500000 3.6582000256 4.2811999321  -999.250000  -999.250000
 3403.3967000 61.099998474 44.750000000 3.5683999062 3.8808999062  -999.250000  -999.250000
 3403.5493000 61.799999237 46.156200409 3.7948999405 3.6034998894  -999.250000  -999.250000
 3403.7017000 66.599998474 49.937500000 4.0039000511 3.5741999149  -999.250000  -999.250000
 3403.8540000 68.000000000 42.312500000 4.0938000679 3.8984000683  -999.250000  -999.250000
 3404.0063000 66.500000000 32.000000000 4.1328001022 4.5272998810  -999.250000  -999.250000
 3404.1587000 64.099998474 25.703100204 4.1444997787 5.1093997955  -999.250000  -999.250000
 3404.3113000 61.500000000 22.781200409 4.1835999489 5.4608998299  -999.250000  -999.250000
 3404.4636000 60.200000763 22.218799591 4.2694997787 5.7617001534  -999.250000  -999.250000
 3404.6160000 60.299999237 19.656200409 4.4102001190 5.9531002045  -999.250000  -999.250000
 3404.7683000 60.000000000 23.125000000 4.6835999489 5.9766001701  -999.250000  -999.250000
 3404.9209000 61.799999237 26.265600204 4.6914000511 5.5546998978  -999.250000  -999.250000
 3405.0732000 62.299999237 28.390600204 3.9375000000 5.0000000000  -999.250000  -999.250000
 3405.2256000 63.900001526 28.125000000 2.9823999405 4.3828001022  -999.250000  -999.250000
 3405.3779000 66.900001526 27.687500000 2.7284998894 3.7479999065  -999.250000  -999.250000
 3405.5305000 66.699996948 30.671899796 2.6426000595 3.2578001022  -999.250000  -999.250000
 3405.6829000 68.300003052 39.062500000 2.5938000679 2.7987999916  -999.250000  -999.250000
 3405.8352000 68.500000000 48.000000000 2.5938000679 2.5352001190  -999.250000  -999.250000
 3405.9875000 68.400001526 52.062500000 2.6112999916 2.4823999405  -999.250000  -999.250000
 3406.1399000 69.000000000 47.187500000 2.6112999916 2.7676000595  -999.250000  -999.250000
 3406.2925000 68.400001526 46.968799591 2.6015999317 3.9609000683  -999.250000  -999.250000
 3406.4448000 64.699996948 42.218799591 2.6015999317 4.7694997787  -999.250000  -999.250000
 3406.5972000 62.599998474 39.500000000 3.4551000595 4.9414000511  -999.250000  -999.250000
 3406.7495000 61.400001526 30.531200409 4.0897998810 4.5272998810  -999.250000  -999.250000
 3406.9021000 60.400001526 29.312500000 4.2227001190 4.0625000000  -999.250000  -999.250000
 3407.0544000 60.900001526 27.078100204 3.8612999916 3.7578001022  -999.250000  -999.250000
 3407.2068000 61.000000000 32.812500000 3.4219000340 3.6816000938  -999.250000  -999.250000
 3407.3591000 61.400001526 35.875000000 3.0000000000 3.6777000427  -999.250000  -999.250000
