# LAS format log file from PETREL
# Project units are specified as depth units
#==================================================================
~Version information
VERS.   2.0:
WRAP.   NO:
#==================================================================
~Well
STRT .m      0.0000000000 :
STOP .m      3438.9060000 :
STEP .m     0.00000000 :
NULL .        -999.250000 :
COMP.           : COMPANY
WELL.  ISH1051   : WELL
FLD.            : FIELD
LOC.            : LOCATION
SRVC.           : SERVICE COMPANY
DATE.  Sunday, February 22 2015 15:16:31   : DATE
PROV.           : PROVINCE
UWI.      : UNIQUE WELL ID
API.            : API NUMBER
#==================================================================
~Curve
DEPT .m                   : DEPTH
SONI .us/ft               : SONI
GR .gAPI                  : GR
LLD .ohm.m                : LLD
LLM .ohm.m                : LLM
Acousticimpedance1 .kPa.s/m : Acoustic impedance 1
Reflectioncoefficients1 .  : Reflection coefficients 1
~Parameter
#==================================================================
~Ascii
# ...
 3367.7351000 70.800003052 36.718799591 4.9766001701 6.3125000000  -999.250000  -999.250000
 3367.8877000 70.000000000 34.406200409 4.3046998978 4.9257998466  -999.250000  -999.250000
 3368.0400000 70.900001526 40.843799591 3.7147998810 3.7188000679  -999.250000  -999.250000
 3368.1924000 71.500000000 45.125000000 3.3417999744 3.1229999065  -999.250000  -999.250000
 3368.3447000 72.800003052 52.562500000 3.1250000000 2.8710999489  -999.250000  -999.250000
 3368.4973000 73.599998474 57.656200409 2.9570000172 2.8262000084  -999.250000  -999.250000
 3368.6497000 73.900001526 56.062500000 2.8222999573 2.8457000256  -999.250000  -999.250000
 3368.8020000 73.199996948 54.156200409 2.8085999489 2.8710999489  -999.250000  -999.250000
 3368.9543000 72.199996948 52.281200409 2.9198999405 3.0020000935  -999.250000  -999.250000
 3369.1067000 70.400001526 50.437500000 3.1347999573 3.3887000084  -999.250000  -999.250000
 3369.2593000 69.199996948 47.000000000 3.4433999062 3.9198999405  -999.250000  -999.250000
 3369.4116000 67.900001526 42.718799591 3.7147998810 4.2930002213  -999.250000  -999.250000
 3369.5640000 67.400001526 43.281200409 3.8905999660 4.5468997955  -999.250000  -999.250000
 3369.7163000 67.099998474 42.312500000 3.9258000851 4.5977001190  -999.250000  -999.250000
 3369.8689000 67.099998474 42.843799591 3.8496000767 4.1953001022  -999.250000  -999.250000
 3370.0212000 68.699996948 38.468799591 3.7637000084 3.7147998810  -999.250000  -999.250000
 3370.1736000 70.500000000 44.625000000 3.7772998810 3.4042999744  -999.250000  -999.250000
 3370.3259000 71.199996948 46.750000000 3.7597999573 3.3945000172  -999.250000  -999.250000
 3370.4785000 71.699996948 52.687500000 3.6737999916 3.6366999149  -999.250000  -999.250000
 3370.6309000 71.699996948 46.656200409 3.5215001106 3.8183999062  -999.250000  -999.250000
 3370.7832000 70.500000000 45.781200409 3.4237999916 3.8397998810  -999.250000  -999.250000
 3370.9355000 69.699996948 43.093799591 3.4159998894 3.8203001022  -999.250000  -999.250000
 3371.0879000 70.000000000 47.187500000 3.4395000935 3.7772998810  -999.250000  -999.250000
 3371.2405000 69.900001526 51.031200409 3.4570000172 3.6561999321  -999.250000  -999.250000
 3371.3928000 70.199996948 57.406200409 3.4530999660 3.4823999405  -999.250000  -999.250000
 3371.5452000 70.599998474 59.187500000 3.3652000427 3.3417999744  -999.250000  -999.250000
 3371.6975000 72.599998474 62.406200409 3.1737999916 3.1933999062  -999.250000  -999.250000
 3371.8501000 73.800003052 62.750000000 2.9375000000 2.9647998810  -999.250000  -999.250000
 3372.0024000 75.099998474 64.625000000 2.7969000340 2.7383000851  -999.250000  -999.250000
 3372.1548000 75.599998474 62.531200409 2.7265999317 2.6015999317  -999.250000  -999.250000
 3372.3071000 76.000000000 64.875000000 2.7109000683 2.6171998978  -999.250000  -999.250000
 3372.4597000 75.300003052 65.750000000 2.6914000511 2.6914000511  -999.250000  -999.250000
 3372.6121000 75.199996948 65.125000000 2.6465001106 2.7090001106  -999.250000  -999.250000
 3372.7644000 74.000000000 63.843799591 2.6073999405 2.6503999233  -999.250000  -999.250000
 3372.9167000 72.000000000 64.062500000 2.5859000683 2.5645000935  -999.250000  -999.250000
 3373.0691000 71.199996948 66.750000000 2.5762000084 2.5097999573  -999.250000  -999.250000
 3373.2217000 71.500000000 65.625000000 2.5487999916 2.4472999573  -999.250000  -999.250000
 3373.3740000 73.500000000 63.531200409 2.5352001190 2.3241999149  -999.250000  -999.250000
 3373.5264000 76.400001526 62.687500000 2.5272998810 2.2616999149  -999.250000  -999.250000
 3373.6787000 79.000000000 64.312500000 2.5215001106 2.2969000340  -999.250000  -999.250000
 3373.8313000 78.699996948 67.375000000 2.5272998810 2.3770000935  -999.250000  -999.250000
 3373.9836000 78.300003052 70.625000000 2.5487999916 2.4688000679  -999.250000  -999.250000
 3374.1360000 76.000000000 71.687500000 2.5957000256 2.5683999062  -999.250000  -999.250000
 3374.2883000 75.000000000 71.062500000 2.6679999828 2.6758000851  -999.250000  -999.250000
 3374.4409000 72.800003052 67.312500000 2.7616999149 2.7616999149  -999.250000  -999.250000
 3374.5933000 72.300003052 70.500000000 2.8729999065 2.8496000767  -999.250000  -999.250000
 3374.7456000 72.400001526 68.125000000 3.0155999660 2.9491999149  -999.250000  -999.250000
 3374.8979000 71.400001526 66.437500000 3.2304999828 3.1015999317  -999.250000  -999.250000
 3375.0503000 70.300003052 53.875000000 3.5409998894 3.3945000172  -999.250000  -999.250000
 3375.2029000 66.300003052 47.656200409 3.8340001106 3.9902000427  -999.250000  -999.250000
 3375.3552000 62.599998474 39.156200409 4.1835999489 4.8906002045  -999.250000  -999.250000
 3375.5076000 61.200000763 31.359399796 4.6757998466 5.5078001022  -999.250000  -999.250000
 3375.6599000 60.299999237 23.593799591 5.3944997787 5.9257998466  -999.250000  -999.250000
 3375.8125000 61.299999237 19.296899796 6.2891001701 6.4688000679  -999.250000  -999.250000
 3375.9648000 63.299999237 20.656200409 7.0194997787 7.3164000511  -999.250000  -999.250000
 3376.1172000 64.699996948 19.078100204 7.5546998978 8.1953001022  -999.250000  -999.250000
 3376.2695000 65.500000000 18.531200409 7.6171998978 8.5859003067  -999.250000  -999.250000
 3376.4221000 65.099998474 17.703100204 7.2188000679 8.3125000000  -999.250000  -999.250000
 3376.5745000 62.700000763 19.890600204 6.8593997955 7.6914000511  -999.250000  -999.250000
 3376.7268000 64.000000000 20.156200409 7.1210999489 7.4805002213  -999.250000  -999.250000
 3376.8792000 65.500000000 19.375000000 7.6953001022 7.7656002045  -999.250000  -999.250000
 3377.0315000 67.300003052 18.203100204 8.1953001022 8.3203001022  -999.250000  -999.250000
 3377.1841000 67.900001526 19.281200409 8.3281002045 9.0156002045  -999.250000  -999.250000
 3377.3364000 65.300003052 20.625000000 7.9022998810 9.2343997955  -999.250000  -999.250000
 3377.4888000 62.400001526 19.921899796 7.5781002045 8.7031002045  -999.250000  -999.250000
 3377.6411000 62.000000000 21.531200409 7.3358998299 7.7968997955  -999.250000  -999.250000
 3377.7937000 63.700000763 19.343799591 7.2772998810 6.8828001022  -999.250000  -999.250000
 3377.9460000 67.800003052 19.546899796 7.5781002045 6.4688000679  -999.250000  -999.250000
 3378.0984000 67.000000000 17.953100204 8.1015996933 6.6641001701  -999.250000  -999.250000
 3378.2507000 67.400001526 22.265600204 8.6796998978 7.8477001190  -999.250000  -999.250000
 3378.4033000 65.099998474 24.687500000 9.3906002045 9.5156002045  -999.250000  -999.250000
 3378.5557000 62.299999237 23.046899796 9.5390996933 10.289099693  -999.250000  -999.250000
 3378.7080000 62.000000000 20.093799591 9.3125000000 10.046899796  -999.250000  -999.250000
 3378.8604000 63.400001526 20.046899796 9.1406002045 9.2109003067  -999.250000  -999.250000
 3379.0127000 66.199996948 21.234399796 8.9218997955 7.8632998466  -999.250000  -999.250000
 3379.1653000 67.199996948 19.609399796 8.5781002045 6.8319997787  -999.250000  -999.250000
 3379.3176000 70.000000000 18.546899796 8.3671998978 6.2578001022  -999.250000  -999.250000
 3379.4700000 72.199996948 18.062500000 8.0468997955 6.1561999321  -999.250000  -999.250000
 3379.6223000 72.599998474 21.296899796 7.8593997955 6.4766001701  -999.250000  -999.250000
 3379.7749000 71.900001526 22.390600204 8.0625000000 6.8046998978  -999.250000  -999.250000
 3379.9272000 69.800003052 21.687500000 8.4218997955 6.9180002213  -999.250000  -999.250000
 3380.0796000 70.500000000 20.843799591 8.8125000000 7.3828001022  -999.250000  -999.250000
 3380.2319000 69.199996948 21.390600204 9.7578001022 9.2343997955  -999.250000  -999.250000
 3380.3845000 68.199996948 24.187500000 11.382800102 12.343799591  -999.250000  -999.250000
 3380.5369000 64.300003052 24.437500000 12.367199898 13.945300102  -999.250000  -999.250000
 3380.6892000 61.400001526 22.812500000 11.804699898 12.820300102  -999.250000  -999.250000
 3380.8416000 59.599998474 20.828100204 10.406200409 10.937500000  -999.250000  -999.250000
