# LAS format log file from PETREL
# Project units are specified as depth units
#==================================================================
~Version information
VERS.   2.0:
WRAP.   NO:
#==================================================================
~Well
STRT .m      0.0000000000 :
STOP .m      3438.9060000 :
STEP .m     0.00000000 :
NULL .        -999.250000 :
COMP.           : COMPANY
WELL.  ISH1051   : WELL
FLD.            : FIELD
LOC.            : LOCATION
SRVC.           : SERVICE COMPANY
DATE.  Sunday, February 22 2015 15:16:31   : DATE
PROV.           : PROVINCE
UWI.      : UNIQUE WELL ID
API.            : API NUMBER
#==================================================================
~Curve
DEPT .m                   : DEPTH
SONI .us/ft               : SONI
GR .gAPI                  : GR
LLD .ohm.m                : LLD
LLM .ohm.m                : LLM
Acousticimpedance1 .kPa.s/m : Acoustic impedance 1
Reflectioncoefficients1 .  : Reflection coefficients 1
~Parameter
#==================================================================
~Ascii
# ...
 3380.9939000 58.099998474 21.781200409 9.3203001022 8.9765996933  -999.250000  -999.250000
 3381.1465000 58.200000763 22.890600204 9.2109003067 7.7305002213  -999.250000  -999.250000
 3381.2988000 58.299999237 26.812500000 9.5078001022 7.3007998466  -999.250000  -999.250000
 3381.4512000 59.200000763 25.421899796 9.6484003067 7.3242001534  -999.250000  -999.250000
 3381.6035000 62.000000000 28.406200409 9.2578001022 7.6796998978  -999.250000  -999.250000
 3381.7561000 63.200000763 26.718799591 8.1718997955 8.3437995911  -999.250000  -999.250000
 3381.9084000 67.500000000 32.156200409 6.3164000511 7.9766001701  -999.250000  -999.250000
 3382.0608000 71.699996948 35.656200409 4.6875000000 5.3046998978  -999.250000  -999.250000
 3382.2131000 72.800003052 44.593799591 3.8612999916 3.4198999405  -999.250000  -999.250000
 3382.3655000 74.300003052 48.187500000 3.2616999149 2.8183999062  -999.250000  -999.250000
 3382.5181000 75.099998474 52.500000000 2.6679999828 2.5078001022  -999.250000  -999.250000
 3382.6704000 76.900001526 51.406200409 2.2969000340 2.1073999405  -999.250000  -999.250000
 3382.8228000 77.199996948 55.843799591 2.2109000683 1.9452999830  -999.250000  -999.250000
 3382.9751000 79.800003052 60.093799591 2.1659998894 1.9228999615  -999.250000  -999.250000
 3383.1277000 79.199996948 65.437500000 2.1270000935 1.9208999872  -999.250000  -999.250000
 3383.2800000 76.000000000 62.187500000 2.0741999149 1.9658000469  -999.250000  -999.250000
 3383.4324000 73.300003052 63.531200409 2.1522998810 2.1034998894  -999.250000  -999.250000
 3383.5847000 70.199996948 60.531200409 2.3222999573 2.3438000679  -999.250000  -999.250000
 3383.7373000 67.300003052 56.968799591 2.5039000511 2.6073999405  -999.250000  -999.250000
 3383.8896000 64.099998474 45.968799591 2.7695000172 2.8691000938  -999.250000  -999.250000
 3384.0420000 64.900001526 37.000000000 3.0780999660 3.1561999321  -999.250000  -999.250000
 3384.1943000 67.300003052 34.125000000 3.4258000851 3.4551000595  -999.250000  -999.250000
 3384.3467000 70.900001526 33.343799591 3.8866999149 3.8027000427  -999.250000  -999.250000
 3384.4993000 70.000000000 33.156200409 4.3242001534 4.1757998466  -999.250000  -999.250000
 3384.6516000 70.400001526 32.500000000 4.6835999489 4.5078001022  -999.250000  -999.250000
 3384.8040000 70.800003052 30.875000000 4.9647998810 4.9688000679  -999.250000  -999.250000
 3384.9563000 70.500000000 31.687500000 5.2891001701 5.5703001022  -999.250000  -999.250000
 3385.1089000 71.000000000 31.187500000 5.7147998810 6.0311999321  -999.250000  -999.250000
 3385.2612000 71.199996948 30.109399796 6.3516001701 6.3710999489  -999.250000  -999.250000
 3385.4136000 70.000000000 30.406200409 7.0272998810 7.0194997787  -999.250000  -999.250000
 3385.5659000 69.800003052 29.718799591 7.7539000511 7.9022998810  -999.250000  -999.250000
 3385.7185000 69.300003052 32.375000000 8.6875000000 8.5781002045  -999.250000  -999.250000
 3385.8708000 68.000000000 35.000000000 9.3906002045 9.1562004089  -999.250000  -999.250000
 3386.0232000 67.400001526 37.937500000 10.039099693 9.9453001022  -999.250000  -999.250000
 3386.1755000 66.699996948 36.906200409 11.023400307 11.023400307  -999.250000  -999.250000
 3386.3279000 65.599998474 35.000000000 12.218799591 12.351599693  -999.250000  -999.250000
 3386.4805000 64.400001526 30.937500000 13.023400307 13.742199898  -999.250000  -999.250000
 3386.6328000 63.599998474 27.953100204 14.203100204 15.156200409  -999.250000  -999.250000
 3386.7852000 63.500000000 26.078100204 15.726599693 16.484399796  -999.250000  -999.250000
 3386.9375000 63.799999237 29.015600204 16.078100204 16.656200409  -999.250000  -999.250000
 3387.0901000 64.900001526 29.828100204 16.250000000 16.015600204  -999.250000  -999.250000
 3387.2424000 63.599998474 29.109399796 16.687500000 15.593799591  -999.250000  -999.250000
 3387.3948000 62.299999237 32.625000000 16.421899796 15.984399796  -999.250000  -999.250000
 3387.5471000 60.400001526 35.125000000 16.343799591 16.015600204  -999.250000  -999.250000
 3387.6997000 58.000000000 36.593799591 17.234399796 16.218799591  -999.250000  -999.250000
 3387.8521000 59.099998474 33.375000000 17.890600204 17.625000000  -999.250000  -999.250000
 3388.0044000 59.099998474 33.000000000 17.875000000 19.546899796  -999.250000  -999.250000
 3388.1567000 57.400001526 35.312500000 17.953100204 20.000000000  -999.250000  -999.250000
 3388.3091000 58.500000000 37.500000000 17.984399796 19.750000000  -999.250000  -999.250000
 3388.4617000 57.700000763 38.593799591 18.109399796 19.546899796  -999.250000  -999.250000
 3388.6140000 57.400001526 36.937500000 18.031200409 19.531200409  -999.250000  -999.250000
 3388.7664000 56.599998474 36.656200409 17.562500000 19.265600204  -999.250000  -999.250000
 3388.9187000 56.599998474 36.125000000 16.796899796 18.421899796  -999.250000  -999.250000
 3389.0713000 58.000000000 36.843799591 16.156200409 17.343799591  -999.250000  -999.250000
 3389.2236000 59.400001526 35.531200409 15.007800102 15.804699898  -999.250000  -999.250000
 3389.3760000 61.400001526 34.968799591 14.023400307 14.734399796  -999.250000  -999.250000
 3389.5283000 64.199996948 32.843799591 13.140600204 13.835900307  -999.250000  -999.250000
 3389.6809000 65.900001526 29.609399796 12.445300102 12.781200409  -999.250000  -999.250000
 3389.8333000 67.199996948 27.171899796 11.429699898 11.648400307  -999.250000  -999.250000
 3389.9856000 67.000000000 26.437500000 10.882800102 10.593799591  -999.250000  -999.250000
 3390.1379000 65.800003052 25.343799591 10.640600204 9.4687995911  -999.250000  -999.250000
 3390.2903000 65.599998474 26.421899796 10.453100204 9.1171998978  -999.250000  -999.250000
 3390.4429000 64.800003052 28.093799591 10.164099693 8.5937995911  -999.250000  -999.250000
 3390.5952000 64.800003052 31.093799591 9.5703001022 8.2734003067  -999.250000  -999.250000
 3390.7476000 66.000000000 30.812500000 8.7890996933 7.8906002045  -999.250000  -999.250000
 3390.8999000 67.500000000 33.875000000 7.6992001534 6.9375000000  -999.250000  -999.250000
 3391.0525000 69.400001526 33.062500000 6.6718997955 5.4608998299  -999.250000  -999.250000
 3391.2048000 71.199996948 33.593799591 6.1522998810 4.5000000000  -999.250000  -999.250000
 3391.3572000 74.199996948 33.781200409 5.7772998810 3.8066000938  -999.250000  -999.250000
 3391.5095000 74.599998474 36.468799591 5.1757998466 3.3320000172  -999.250000  -999.250000
 3391.6621000 75.699996948 42.375000000 4.3789000511 3.0058999062  -999.250000  -999.250000
 3391.8145000 77.599998474 45.031200409 3.7227001190 2.7344000340  -999.250000  -999.250000
 3391.9668000 77.699996948 48.000000000 3.2167999744 2.4590001106  -999.250000  -999.250000
 3392.1191000 78.900001526 48.562500000 2.9472999573 2.2323999405  -999.250000  -999.250000
 3392.2715000 79.400001526 49.000000000 2.9140999317 2.1719000340  -999.250000  -999.250000
 3392.4241000 79.000000000 53.906200409 2.8984000683 2.1835999489  -999.250000  -999.250000
 3392.5764000 78.599998474 57.156200409 2.9316000938 2.1875000000  -999.250000  -999.250000
 3392.7288000 78.000000000 62.656200409 3.0039000511 2.2167999744  -999.250000  -999.250000
 3392.8811000 77.800003052 62.031200409 3.0859000683 2.2753999233  -999.250000  -999.250000
 3393.0337000 77.099998474 62.312500000 3.0664000511 2.3457000256  -999.250000  -999.250000
 3393.1860000 76.800003052 57.500000000 2.9921998978 2.3612999916  -999.250000  -999.250000
 3393.3384000 76.000000000 58.000000000 2.8905999660 2.2948999405  -999.250000  -999.250000
 3393.4907000 75.099998474 59.406200409 2.8046998978 2.2676000595  -999.250000  -999.250000
 3393.6433000 75.099998474 69.812500000 2.7012000084 2.2948999405  -999.250000  -999.250000
 3393.7957000 74.300003052 68.750000000 2.5820000172 2.2852001190  -999.250000  -999.250000
 3393.9480000 74.500000000 71.937500000 2.4512000084 2.2188000679  -999.250000  -999.250000
 3394.1003000 74.199996948 70.375000000 2.3573999405 2.1659998894  -999.250000  -999.250000
