# LAS format log file from PETREL
# Project units are specified as depth units
#==================================================================
~Version information
VERS.   2.0:
WRAP.   NO:
#==================================================================
~Well
STRT .m      0.0000000000 :
STOP .m      3438.9060000 :
STEP .m     0.00000000 :
NULL .        -999.250000 :
COMP.           : COMPANY
WELL.  ISH1051   : WELL
FLD.            : FIELD
LOC.            : LOCATION
SRVC.           : SERVICE COMPANY
DATE.  Sunday, February 22 2015 15:16:31   : DATE
PROV.           : PROVINCE
UWI.      : UNIQUE WELL ID
API.            : API NUMBER
#==================================================================
~Curve
DEPT .m                   : DEPTH
SONI .us/ft               : SONI
GR .gAPI                  : GR
LLD .ohm.m                : LLD
LLM .ohm.m                : LLM
Acousticimpedance1 .kPa.s/m : Acoustic impedance 1
Reflectioncoefficients1 .  : Reflection coefficients 1
~Parameter
#==================================================================
~Ascii
# ...
 3407.5117000 61.400001526 39.750000000 2.7500000000 3.5859000683  -999.250000  -999.250000
 3407.6641000 61.500000000 44.375000000 2.6034998894 2.2362999916  -999.250000  -999.250000
 3407.8164000 61.500000000 47.000000000 2.4765999317 2.2772998810  -999.250000  -999.250000
 3407.9688000 61.700000763 50.531200409 2.4414000511 2.4121000767  -999.250000  -999.250000
 3408.1211000 61.400001526 46.156200409 2.5859000683 2.6094000340  -999.250000  -999.250000
 3408.2737000 61.500000000 45.781200409 2.8164000511 2.8926000595  -999.250000  -999.250000
 3408.4260000 61.500000000 42.250000000 3.2265999317 3.4258000851  -999.250000  -999.250000
 3408.5784000 61.700000763 38.343799591 4.0311999321 3.9979999065  -999.250000  -999.250000
 3408.7307000 61.500000000 32.906200409 4.4882998466 4.4766001701  -999.250000  -999.250000
 3408.8833000 61.599998474 33.000000000 4.3007998466 4.5156002045  -999.250000  -999.250000
 3409.0356000 61.599998474 33.437500000 3.7539000511 3.7188000679  -999.250000  -999.250000
 3409.1880000 61.599998474 33.968799591 3.2987999916 2.8594000340  -999.250000  -999.250000
 3409.3403000 61.400001526 35.125000000 2.9883000851 2.4746000767  -999.250000  -999.250000
 3409.4929000 61.500000000 35.093799591 2.7969000340 2.3066000938  -999.250000  -999.250000
 3409.6453000 61.599998474 37.187500000 2.6191000938 2.2441000938  -999.250000  -999.250000
 3409.7976000 61.599998474 36.156200409 2.4960999489 2.2284998894  -999.250000  -999.250000
 3409.9500000 61.700000763 37.437500000 2.5292999744 2.2832000256  -999.250000  -999.250000
 3410.1023000 61.700000763 37.875000000 2.6659998894 2.5352001190  -999.250000  -999.250000
 3410.2549000 61.700000763 35.218799591 2.7948999405 2.9453001022  -999.250000  -999.250000
 3410.4072000 61.500000000 35.000000000 2.9414000511 3.3262000084  -999.250000  -999.250000
 3410.5596000 61.599998474 31.906200409 2.9921998978 3.6112999916  -999.250000  -999.250000
 3410.7119000 61.500000000 34.312500000 2.8280999660 3.5938000679  -999.250000  -999.250000
 3410.8645000 61.700000763 33.968799591 2.6445000172 3.0741999149  -999.250000  -999.250000
 3411.0168000 61.500000000 35.593799591 2.4862999916 2.3301000595  -999.250000  -999.250000
 3411.1692000 61.500000000 35.781200409 2.3262000084 1.9658000469  -999.250000  -999.250000
 3411.3215000 61.599998474 37.468799591 2.2441000938 1.9091999531  -999.250000  -999.250000
 3411.4741000 61.700000763 37.562500000 2.1933999062 1.9618999958  -999.250000  -999.250000
 3411.6265000 61.500000000 35.531200409 2.1796998978 2.1270000935  -999.250000  -999.250000
 3411.7788000 61.599998474 32.375000000 2.3085999489 2.4472999573  -999.250000  -999.250000
 3411.9312000 61.599998474 31.265600204 2.5683999062 2.8887000084  -999.250000  -999.250000
 3412.0835000 61.500000000 32.562500000 3.0058999062 3.5234000683  -999.250000  -999.250000
 3412.2361000 61.599998474 33.750000000 3.6582000256 4.5546998978  -999.250000  -999.250000
 3412.3884000 61.599998474 32.468799591 4.5194997787 5.5897998810  -999.250000  -999.250000
 3412.5408000 61.500000000 33.437500000 5.6796998978 6.8319997787  -999.250000  -999.250000
 3412.6931000 61.500000000 35.312500000 6.5430002213 8.1406002045  -999.250000  -999.250000
 3412.8457000 61.500000000 38.375000000 6.5742001534 8.4609003067  -999.250000  -999.250000
 3412.9980000 61.500000000 37.656200409 5.7227001190 6.9688000679  -999.250000  -999.250000
 3413.1504000 61.500000000 36.781200409 4.3906002045 5.6171998978  -999.250000  -999.250000
 3413.3027000 61.500000000 34.562500000 3.2969000340 4.0194997787  -999.250000  -999.250000
 3413.4551000 61.500000000 32.875000000 2.6854999065 3.0683999062  -999.250000  -999.250000
 3413.6077000 61.500000000 33.843799591 2.3554999828 2.3320000172  -999.250000  -999.250000
 3413.7600000 61.500000000 35.250000000 2.1347999573 1.9551000595  -999.250000  -999.250000
 3413.9124000 61.500000000 37.468799591 2.0155999660 1.8018000126  -999.250000  -999.250000
 3414.0647000 61.500000000 35.781200409 1.9189000130 1.7920000553  -999.250000  -999.250000
 3414.2173000 61.500000000 35.343799591 1.7929999828 1.8720999956  -999.250000  -999.250000
 3414.3696000 61.500000000 34.125000000 1.7118999958 1.8661999702  -999.250000  -999.250000
 3414.5220000 61.500000000 35.468799591 1.7138999701 1.7685999870  -999.250000  -999.250000
 3414.6743000 61.500000000 35.812500000 1.7559000254 1.7402000427  -999.250000  -999.250000
 3414.8269000 61.500000000 37.031200409 1.8417999744 1.7978999615  -999.250000  -999.250000
 3414.9792000 61.500000000 37.031200409 1.9364999533 1.9179999828  -999.250000  -999.250000
 3415.1316000 61.500000000 37.031200409 1.9530999660 1.9980000257  -999.250000  -999.250000
 3415.2839000 61.500000000 37.031200409 1.9394999743 1.9766000509  -999.250000  -999.250000
 3415.4363000 61.500000000 37.031200409 1.9873000383 1.9335999489  -999.250000  -999.250000
 3415.5889000 61.500000000 37.031200409 2.1015999317 1.9414000511  -999.250000  -999.250000
 3415.7412000 61.500000000 37.031200409 2.2520000935 2.0137000084  -999.250000  -999.250000
 3415.8936000 61.500000000 37.031200409 2.3671998978 2.1679999828  -999.250000  -999.250000
 3416.0459000 61.500000000 37.031200409 2.4354999065 2.3671998978  -999.250000  -999.250000
 3416.1985000 61.500000000 37.031200409 2.4844000340 2.6171998978  -999.250000  -999.250000
 3416.3508000 61.500000000 37.031200409 2.6270000935 2.9316000938  -999.250000  -999.250000
 3416.5032000 61.500000000 37.031200409 3.0703001022 3.3965001106  -999.250000  -999.250000
 3416.6555000 61.500000000 37.031200409 3.6484000683 3.9354999065  -999.250000  -999.250000
 3416.8081000 61.500000000 37.031200409 4.2852001190 4.5272998810  -999.250000  -999.250000
 3416.9604000 61.500000000 37.031200409 4.7852001190 4.9647998810  -999.250000  -999.250000
 3417.1128000 61.500000000 37.031200409 5.0194997787 5.2305002213  -999.250000  -999.250000
 3417.2651000 61.500000000 37.031200409 5.1016001701 5.4531002045  -999.250000  -999.250000
 3417.4175000 61.500000000 37.031200409 5.2188000679 5.9453001022  -999.250000  -999.250000
 3417.5701000 61.500000000 37.031200409 5.2733998299 6.9257998466  -999.250000  -999.250000
 3417.7224000 61.500000000 37.031200409 5.2500000000 7.8164000511  -999.250000  -999.250000
 3417.8748000 61.500000000 37.031200409 5.2305002213 8.2500000000  -999.250000  -999.250000
 3418.0271000 61.500000000 37.031200409 5.2227001190 8.4140996933  -999.250000  -999.250000
 3418.1797000 61.500000000 37.031200409 5.2147998810 8.4296998978  -999.250000  -999.250000
 3418.3320000 61.500000000 37.031200409 5.1953001022 8.4687995911  -999.250000  -999.250000
 3418.4844000 61.500000000 37.031200409 5.1367001534 8.5000000000  -999.250000  -999.250000
 3418.6367000 61.500000000 37.031200409 5.0781002045 8.5312004089  -999.250000  -999.250000
 3418.7893000 61.500000000 37.031200409 5.0311999321 8.5546998978  -999.250000  -999.250000
 3418.9417000 61.500000000 37.031200409 5.0039000511 8.5390996933  -999.250000  -999.250000
 3419.0940000 61.500000000 37.031200409 4.9960999489 8.5546998978  -999.250000  -999.250000
 3419.2463000 61.500000000 37.031200409 4.9921998978 8.5468997955  -999.250000  -999.250000
 3419.3987000 61.500000000 37.031200409 4.9882998466 8.5546998978  -999.250000  -999.250000
 3419.5513000 61.500000000 37.031200409 4.9882998466 8.5468997955  -999.250000  -999.250000
 3419.7036000 61.500000000 37.031200409 4.9882998466 8.5546998978  -999.250000  -999.250000
 3419.8560000 61.500000000 37.031200409 4.9882998466 8.5468997955  -999.250000  -999.250000
 3420.0083000 61.500000000 37.031200409 4.9882998466 8.5625000000  -999.250000  -999.250000
 3420.1609000 61.500000000 37.031200409 4.9921998978 8.5546998978  -999.250000  -999.250000
 3420.3132000 61.500000000 37.031200409 4.9882998466 8.5625000000  -999.250000  -999.250000
 3420.4656000 61.500000000 37.031200409 4.9882998466 8.5625000000  -999.250000  -999.250000
 3420.6179000 61.500000000 37.031200409 4.9882998466 8.5625000000  -999.250000  -999.250000
