# LAS format log file from PETREL
# Project units are specified as depth units
#==================================================================
~Version information
VERS.   2.0:
WRAP.   NO:
#==================================================================
~Well
STRT .m      0.0000000000 :
STOP .m      3438.9060000 :
STEP .m     0.00000000 :
NULL .        -999.250000 :
COMP.           : COMPANY
WELL.  ISH1051   : WELL
FLD.            : FIELD
LOC.            : LOCATION
SRVC.           : SERVICE COMPANY
DATE.  Sunday, February 22 2015 15:16:31   : DATE
PROV.           : PROVINCE
UWI.      : UNIQUE WELL ID
API.            : API NUMBER
#==================================================================
~Curve
DEPT .m                   : DEPTH
SONI .us/ft               : SONI
GR .gAPI                  : GR
LLD .ohm.m                : LLD
LLM .ohm.m                : LLM
Acousticimpedance1 .kPa.s/m : Acoustic impedance 1
Reflectioncoefficients1 .  : Reflection coefficients 1
~Parameter
#==================================================================
~Ascii
# ...
 3327.9587000 68.300003052 29.390600204 14.562500000 15.789099693  -999.250000  -999.250000
 3328.1111000 66.400001526 28.812500000 18.421899796 20.328100204  -999.250000  -999.250000
 3328.2637000 65.699996948 30.437500000 19.093799591 23.625000000  -999.250000  -999.250000
 3328.4160000 65.099998474 32.000000000 18.656200409 24.984399796  -999.250000  -999.250000
 3328.5684000 65.800003052 29.296899796 18.125000000 23.828100204  -999.250000  -999.250000
 3328.7207000 65.500000000 26.765600204 19.125000000 22.203100204  -999.250000  -999.250000
 3328.8733000 65.500000000 25.140600204 20.031200409 20.265600204  -999.250000  -999.250000
 3329.0256000 65.000000000 24.359399796 18.734399796 19.578100204  -999.250000  -999.250000
 3329.1780000 65.900001526 26.937500000 15.023400307 17.046899796  -999.250000  -999.250000
 3329.3303000 66.400001526 25.609399796 9.8750000000 12.750000000  -999.250000  -999.250000
 3329.4829000 66.900001526 29.359399796 5.9492001534 8.3671998978  -999.250000  -999.250000
 3329.6353000 69.099998474 31.687500000 4.3516001701 4.5897998810  -999.250000  -999.250000
 3329.7876000 73.300003052 41.031200409 3.6621000767 2.8457000256  -999.250000  -999.250000
 3329.9399000 78.199996948 53.062500000 3.2909998894 2.3183999062  -999.250000  -999.250000
 3330.0923000 83.800003052 61.718799591 3.3340001106 2.2460999489  -999.250000  -999.250000
 3330.2449000 84.800003052 62.562500000 3.6034998894 2.5253999233  -999.250000  -999.250000
 3330.3972000 78.300003052 56.687500000 3.7479999065 3.2421998978  -999.250000  -999.250000
 3330.5496000 72.599998474 42.406200409 3.8612999916 4.2460999489  -999.250000  -999.250000
 3330.7019000 65.699996948 29.296899796 4.3477001190 5.1757998466  -999.250000  -999.250000
 3330.8545000 61.900001526 15.593799591 5.3319997787 6.5039000511  -999.250000  -999.250000
 3331.0068000 59.200000763 12.781200409 8.2109003067 9.4531002045  -999.250000  -999.250000
 3331.1592000 57.299999237 12.250000000 15.992199898 14.679699898  -999.250000  -999.250000
 3331.3115000 56.099998474 13.062500000 35.093799591 23.593799591  -999.250000  -999.250000
 3331.4641000 56.400001526 12.601599693 64.187500000 42.062500000  -999.250000  -999.250000
 3331.6165000 57.599998474 11.531200409 80.500000000 58.968799591  -999.250000  -999.250000
 3331.7688000 56.900001526 9.9218997955 62.062500000 62.031200409  -999.250000  -999.250000
 3331.9211000 58.400001526 8.9921998978 52.093799591 58.125000000  -999.250000  -999.250000
 3332.0735000 57.500000000 9.7968997955 51.625000000 59.375000000  -999.250000  -999.250000
 3332.2261000 58.299999237 10.328100204 52.406200409 67.375000000  -999.250000  -999.250000
 3332.3784000 58.900001526 12.898400307 56.906200409 77.875000000  -999.250000  -999.250000
 3332.5308000 59.099998474 15.843799591 61.812500000 76.000000000  -999.250000  -999.250000
 3332.6831000 58.200000763 17.187500000 62.625000000 66.875000000  -999.250000  -999.250000
 3332.8357000 58.700000763 15.562500000 61.437500000 57.375000000  -999.250000  -999.250000
 3332.9880000 59.599998474 12.601599693 55.062500000 52.750000000  -999.250000  -999.250000
 3333.1404000 59.900001526 12.867199898 49.875000000 50.062500000  -999.250000  -999.250000
 3333.2927000 61.900001526 12.156200409 47.562500000 47.312500000  -999.250000  -999.250000
 3333.4453000 61.400001526 14.578100204 47.781200409 45.312500000  -999.250000  -999.250000
 3333.5977000 61.200000763 14.851599693 47.687500000 43.937500000  -999.250000  -999.250000
 3333.7500000 61.900001526 15.546899796 47.562500000 41.968799591  -999.250000  -999.250000
 3333.9023000 62.400001526 14.460900307 46.500000000 39.593799591  -999.250000  -999.250000
 3334.0547000 62.500000000 15.265600204 42.781200409 38.031200409  -999.250000  -999.250000
 3334.2073000 61.799999237 17.375000000 41.531200409 35.781200409  -999.250000  -999.250000
 3334.3596000 62.099998474 17.921899796 42.312500000 33.875000000  -999.250000  -999.250000
 3334.5120000 61.700000763 16.578100204 40.968799591 32.250000000  -999.250000  -999.250000
 3334.6643000 61.500000000 14.929699898 39.406200409 31.968799591  -999.250000  -999.250000
 3334.8169000 60.799999237 12.781200409 38.875000000 31.656200409  -999.250000  -999.250000
 3334.9692000 59.700000763 13.851599693 39.781200409 32.187500000  -999.250000  -999.250000
 3335.1216000 59.000000000 14.101599693 41.687500000 33.812500000  -999.250000  -999.250000
 3335.2739000 58.799999237 16.234399796 42.687500000 35.062500000  -999.250000  -999.250000
 3335.4265000 58.000000000 15.976599693 43.093799591 36.031200409  -999.250000  -999.250000
 3335.5789000 58.099998474 16.453100204 45.125000000 35.687500000  -999.250000  -999.250000
 3335.7312000 57.700000763 13.507800102 46.375000000 36.375000000  -999.250000  -999.250000
 3335.8835000 58.099998474 11.890600204 46.062500000 37.218799591  -999.250000  -999.250000
 3336.0359000 59.299999237 11.890600204 44.937500000 37.156200409  -999.250000  -999.250000
 3336.1885000 60.299999237 14.296899796 42.812500000 35.312500000  -999.250000  -999.250000
 3336.3408000 60.599998474 16.968799591 40.156200409 32.593799591  -999.250000  -999.250000
 3336.4932000 60.599998474 16.734399796 37.906200409 29.187500000  -999.250000  -999.250000
 3336.6455000 60.200000763 17.281200409 37.468799591 27.562500000  -999.250000  -999.250000
 3336.7981000 60.700000763 14.609399796 35.625000000 27.671899796  -999.250000  -999.250000
 3336.9504000 61.400001526 16.687500000 34.000000000 27.687500000  -999.250000  -999.250000
 3337.1028000 62.299999237 15.617199898 31.640600204 24.984399796  -999.250000  -999.250000
 3337.2551000 62.900001526 16.687500000 30.609399796 24.484399796  -999.250000  -999.250000
 3337.4077000 63.500000000 12.718799591 30.109399796 23.750000000  -999.250000  -999.250000
 3337.5601000 63.500000000 12.203100204 29.531200409 23.156200409  -999.250000  -999.250000
 3337.7124000 64.300003052 12.718799591 29.375000000 22.843799591  -999.250000  -999.250000
 3337.8647000 64.800003052 17.171899796 29.000000000 23.015600204  -999.250000  -999.250000
 3338.0171000 65.199996948 17.437500000 28.734399796 24.171899796  -999.250000  -999.250000
 3338.1697000 64.800003052 17.187500000 28.953100204 26.421899796  -999.250000  -999.250000
 3338.3220000 66.000000000 16.500000000 29.328100204 28.437500000  -999.250000  -999.250000
 3338.4744000 66.300003052 16.500000000 30.828100204 29.328100204  -999.250000  -999.250000
 3338.6267000 66.000000000 16.500000000 33.843799591 29.968799591  -999.250000  -999.250000
 3338.7793000 65.199996948 12.742199898 38.468799591 33.593799591  -999.250000  -999.250000
 3338.9316000 64.099998474 13.007800102 44.625000000 41.593799591  -999.250000  -999.250000
 3339.0840000 63.299999237 13.000000000 47.312500000 46.937500000  -999.250000  -999.250000
 3339.2363000 62.299999237 13.921899796 46.531200409 46.187500000  -999.250000  -999.250000
 3339.3889000 61.799999237 11.781200409 45.281200409 43.562500000  -999.250000  -999.250000
 3339.5413000 60.700000763 11.257800102 42.562500000 46.531200409  -999.250000  -999.250000
 3339.6936000 60.599998474 10.789099693 38.718799591 48.375000000  -999.250000  -999.250000
 3339.8459000 60.400001526 13.484399796 34.437500000 45.531200409  -999.250000  -999.250000
 3339.9983000 60.700000763 14.828100204 29.156200409 39.031200409  -999.250000  -999.250000
 3340.1509000 62.700000763 15.757800102 23.500000000 31.781200409  -999.250000  -999.250000
 3340.3032000 63.000000000 13.617199898 19.671899796 23.734399796  -999.250000  -999.250000
 3340.4556000 63.799999237 15.210900307 16.531200409 18.609399796  -999.250000  -999.250000
 3340.6079000 64.300003052 16.859399796 13.531200409 15.703100204  -999.250000  -999.250000
 3340.7605000 63.900001526 21.093799591 10.414099693 12.703100204  -999.250000  -999.250000
 3340.9128000 63.400001526 20.281200409 7.7656002045 10.054699898  -999.250000  -999.250000
 3341.0652000 63.400001526 21.921899796 6.0391001701 7.7656002045  -999.250000  -999.250000
