# LAS format log file from PETREL
# Project units are specified as depth units
#==================================================================
~Version information
VERS.   2.0:
WRAP.   NO:
#==================================================================
~Well
STRT .m      0.0000000000 :
STOP .m      3438.9060000 :
STEP .m     0.00000000 :
NULL .        -999.250000 :
COMP.           : COMPANY
WELL.  ISH1051   : WELL
FLD.            : FIELD
LOC.            : LOCATION
SRVC.           : SERVICE COMPANY
DATE.  Sunday, February 22 2015 15:16:31   : DATE
PROV.           : PROVINCE
UWI.      : UNIQUE WELL ID
API.            : API NUMBER
#==================================================================
~Curve
DEPT .m                   : DEPTH
SONI .us/ft               : SONI
GR .gAPI                  : GR
LLD .ohm.m                : LLD
LLM .ohm.m                : LLM
Acousticimpedance1 .kPa.s/m : Acoustic impedance 1
Reflectioncoefficients1 .  : Reflection coefficients 1
~Parameter
#==================================================================
~Ascii
# ...
 3354.4763000 80.000000000 45.718799591 3.7715001106 3.4765999317  -999.250000  -999.250000
 3354.6289000 79.199996948 48.843799591 4.2031002045 3.6777000427  -999.250000  -999.250000
 3354.7812000 77.800003052 47.750000000 4.5391001701 3.9784998894  -999.250000  -999.250000
 3354.9336000 76.099998474 41.875000000 4.5897998810 4.3242001534  -999.250000  -999.250000
 3355.0859000 73.099998474 37.093799591 4.5311999321 4.6016001701  -999.250000  -999.250000
 3355.2383000 71.300003052 36.000000000 4.2578001022 4.6289000511  -999.250000  -999.250000
 3355.3909000 72.400001526 39.937500000 3.8125000000 4.1328001022  -999.250000  -999.250000
 3355.5432000 75.599998474 39.531200409 3.5039000511 3.2520000935  -999.250000  -999.250000
 3355.6956000 78.400001526 48.187500000 3.3729999065 2.6602001190  -999.250000  -999.250000
 3355.8479000 79.500000000 52.687500000 3.3145000935 2.5137000084  -999.250000  -999.250000
 3356.0005000 79.699996948 56.000000000 3.2871000767 2.6366999149  -999.250000  -999.250000
 3356.1528000 76.300003052 50.656200409 3.2051000595 2.8612999916  -999.250000  -999.250000
 3356.3052000 73.099998474 47.906200409 3.0508000851 3.1289000511  -999.250000  -999.250000
 3356.4575000 71.699996948 44.406200409 2.9375000000 3.3066000938  -999.250000  -999.250000
 3356.6101000 71.599998474 44.406200409 2.9551000595 3.3027000427  -999.250000  -999.250000
 3356.7625000 74.000000000 45.562500000 2.9512000084 3.1659998894  -999.250000  -999.250000
 3356.9148000 75.699996948 46.843799591 2.9003999233 2.8241999149  -999.250000  -999.250000
 3357.0671000 77.099998474 47.625000000 2.7734000683 2.5116999149  -999.250000  -999.250000
 3357.2195000 76.199996948 47.812500000 2.5938000679 2.3652000427  -999.250000  -999.250000
 3357.3721000 77.500000000 55.093799591 2.3965001106 2.2578001022  -999.250000  -999.250000
 3357.5244000 77.900001526 53.750000000 2.2188000679 2.1465001106  -999.250000  -999.250000
 3357.6768000 78.300003052 55.156200409 2.1308999062 2.1133000851  -999.250000  -999.250000
 3357.8291000 78.099998474 50.093799591 2.1405999660 2.1503999233  -999.250000  -999.250000
 3357.9817000 77.400001526 51.500000000 2.2246000767 2.2655999660  -999.250000  -999.250000
 3358.1340000 76.800003052 48.687500000 2.3866999149 2.4647998810  -999.250000  -999.250000
 3358.2864000 74.900001526 47.062500000 2.5917999744 2.6640999317  -999.250000  -999.250000
 3358.4387000 72.699996948 47.218799591 2.8612999916 2.8770000935  -999.250000  -999.250000
 3358.5913000 71.099998474 48.343799591 3.0801000595 3.2167999744  -999.250000  -999.250000
 3358.7437000 70.199996948 48.125000000 3.2969000340 3.5996000767  -999.250000  -999.250000
 3358.8960000 69.800003052 44.437500000 3.6542999744 3.8965001106  -999.250000  -999.250000
 3359.0483000 70.000000000 44.218799591 4.1016001701 4.1406002045  -999.250000  -999.250000
 3359.2007000 69.400001526 42.281200409 4.5352001190 4.4647998810  -999.250000  -999.250000
 3359.3533000 71.500000000 45.687500000 4.8007998466 4.7930002213  -999.250000  -999.250000
 3359.5056000 71.500000000 46.406200409 4.4921998978 4.6367001534  -999.250000  -999.250000
 3359.6580000 72.300003052 49.406200409 3.9707000256 4.0117001534  -999.250000  -999.250000
 3359.8103000 73.099998474 48.625000000 3.4647998810 3.3145000935  -999.250000  -999.250000
 3359.9629000 73.900001526 48.875000000 2.9784998894 2.6895000935  -999.250000  -999.250000
 3360.1152000 76.800003052 50.281200409 2.6347999573 2.3066000938  -999.250000  -999.250000
 3360.2676000 78.000000000 53.781200409 2.4335999489 2.0429999828  -999.250000  -999.250000
 3360.4199000 77.800003052 58.875000000 2.2871000767 1.8818000555  -999.250000  -999.250000
 3360.5725000 78.400001526 61.250000000 2.1835999489 1.8564000130  -999.250000  -999.250000
 3360.7249000 81.000000000 62.375000000 2.1465001106 1.9219000340  -999.250000  -999.250000
 3360.8772000 79.800003052 57.718799591 2.1250000000 2.0448999405  -999.250000  -999.250000
 3361.0295000 76.500000000 52.375000000 2.1210999489 2.1895000935  -999.250000  -999.250000
 3361.1819000 73.199996948 45.062500000 2.1522998810 2.2421998978  -999.250000  -999.250000
 3361.3345000 70.800003052 45.312500000 2.2147998810 2.1953001022  -999.250000  -999.250000
 3361.4868000 72.400001526 48.250000000 2.2832000256 2.1737999916  -999.250000  -999.250000
 3361.6392000 75.900001526 53.093799591 2.3770000935 2.2715001106  -999.250000  -999.250000
 3361.7915000 78.099998474 56.343799591 2.4277000427 2.3808999062  -999.250000  -999.250000
 3361.9441000 79.300003052 59.000000000 2.4296998978 2.3534998894  -999.250000  -999.250000
 3362.0964000 78.300003052 63.250000000 2.4277000427 2.2987999916  -999.250000  -999.250000
 3362.2488000 77.300003052 64.187500000 2.4590001106 2.3612999916  -999.250000  -999.250000
 3362.4011000 76.000000000 60.968799591 2.5311999321 2.5253999233  -999.250000  -999.250000
 3362.5537000 75.400001526 53.468799591 2.5917999744 2.6698999405  -999.250000  -999.250000
 3362.7061000 73.400001526 50.937500000 2.6582000256 2.8027000427  -999.250000  -999.250000
 3362.8584000 74.500000000 49.093799591 2.8046998978 2.9414000511  -999.250000  -999.250000
 3363.0107000 74.300003052 50.250000000 2.9765999317 3.1054999828  -999.250000  -999.250000
 3363.1631000 73.500000000 51.406200409 3.1191000938 3.2090001106  -999.250000  -999.250000
 3363.3157000 73.000000000 51.687500000 3.1522998810 3.3046998978  -999.250000  -999.250000
 3363.4680000 72.300003052 53.531200409 3.0917999744 3.3671998978  -999.250000  -999.250000
 3363.6204000 72.199996948 51.156200409 2.8965001106 3.3203001022  -999.250000  -999.250000
 3363.7727000 73.300003052 55.718799591 2.6679999828 3.0527000427  -999.250000  -999.250000
 3363.9253000 73.800003052 57.062500000 2.5234000683 2.6308999062  -999.250000  -999.250000
 3364.0776000 74.900001526 61.781200409 2.4491999149 2.3145000935  -999.250000  -999.250000
 3364.2300000 75.400001526 60.687500000 2.4296998978 2.2012000084  -999.250000  -999.250000
 3364.3823000 75.500000000 57.718799591 2.4628999233 2.2597999573  -999.250000  -999.250000
 3364.5349000 74.400001526 56.968799591 2.5215001106 2.4022998810  -999.250000  -999.250000
 3364.6873000 73.599998474 53.187500000 2.5977001190 2.6719000340  -999.250000  -999.250000
 3364.8396000 73.099998474 51.562500000 2.7460999489 3.0097999573  -999.250000  -999.250000
 3364.9919000 70.300003052 45.468799591 2.9941000938 3.3262000084  -999.250000  -999.250000
 3365.1443000 70.400001526 45.468799591 3.2323999405 3.6445000172  -999.250000  -999.250000
 3365.2969000 69.199996948 43.843799591 3.4159998894 3.9647998810  -999.250000  -999.250000
 3365.4492000 69.800003052 42.281200409 3.4512000084 3.9530999660  -999.250000  -999.250000
 3365.6016000 70.900001526 37.218799591 3.3573999405 3.5566000938  -999.250000  -999.250000
 3365.7539000 71.900001526 42.531200409 3.2421998978 3.2246000767  -999.250000  -999.250000
 3365.9065000 72.800003052 42.031200409 3.1250000000 3.0292999744  -999.250000  -999.250000
 3366.0588000 73.699996948 45.718799591 2.9960999489 2.9277000427  -999.250000  -999.250000
 3366.2112000 73.500000000 38.000000000 2.9414000511 2.9102001190  -999.250000  -999.250000
 3366.3635000 72.199996948 41.250000000 2.9727001190 2.9688000679  -999.250000  -999.250000
 3366.5161000 70.699996948 41.843799591 3.0546998978 3.1465001106  -999.250000  -999.250000
 3366.6685000 70.300003052 45.593799591 3.2441000938 3.4804999828  -999.250000  -999.250000
 3366.8208000 69.400001526 44.218799591 3.6289000511 3.9688000679  -999.250000  -999.250000
 3366.9731000 69.900001526 43.125000000 4.1289000511 4.6522998810  -999.250000  -999.250000
 3367.1255000 71.900001526 40.187500000 4.6602001190 5.5625000000  -999.250000  -999.250000
 3367.2781000 71.400001526 38.625000000 5.2031002045 6.4882998466  -999.250000  -999.250000
 3367.4304000 71.599998474 39.968799591 5.5858998299 7.2305002213  -999.250000  -999.250000
 3367.5828000 71.300003052 36.500000000 5.4414000511 7.2460999489  -999.250000  -999.250000
