# LAS format log file from PETREL
# Project units are specified as depth units
#==================================================================
~Version information
VERS.   2.0:
WRAP.   NO:
#==================================================================
~Well
STRT .m      0.0000000000 :
STOP .m      3438.9060000 :
STEP .m     0.00000000 :
NULL .        -999.250000 :
COMP.           : COMPANY
WELL.  ISH1051   : WELL
FLD.            : FIELD
LOC.            : LOCATION
SRVC.           : SERVICE COMPANY
DATE.  Sunday, February 22 2015 15:16:31   : DATE
PROV.           : PROVINCE
UWI.      : UNIQUE WELL ID
API.            : API NUMBER
#==================================================================
~Curve
DEPT .m                   : DEPTH
SONI .us/ft               : SONI
GR .gAPI                  : GR
LLD .ohm.m                : LLD
LLM .ohm.m                : LLM
Acousticimpedance1 .kPa.s/m : Acoustic impedance 1
Reflectioncoefficients1 .  : Reflection coefficients 1
~Parameter
#==================================================================
~Ascii
# ...
 3341.2175000 64.300003052 25.703100204 5.2811999321 5.8125000000  -999.250000  -999.250000
 3341.3701000 66.000000000 29.203100204 4.9141001701 4.6406002045  -999.250000  -999.250000
 3341.5225000 67.599998474 30.843799591 4.7108998299 4.1875000000  -999.250000  -999.250000
 3341.6748000 68.099998474 31.640600204 4.6250000000 4.2188000679  -999.250000  -999.250000
 3341.8271000 67.900001526 30.015600204 4.5507998466 4.5819997787  -999.250000  -999.250000
 3341.9795000 66.599998474 28.843799591 4.6210999489 5.0585999489  -999.250000  -999.250000
 3342.1321000 66.400001526 22.953100204 5.0664000511 5.4022998810  -999.250000  -999.250000
 3342.2844000 67.800003052 21.656200409 5.8358998299 5.7539000511  -999.250000  -999.250000
 3342.4368000 67.400001526 22.812500000 6.7266001701 6.5858998299  -999.250000  -999.250000
 3342.5891000 66.699996948 22.781200409 7.7578001022 7.8358998299  -999.250000  -999.250000
 3342.7417000 67.699996948 21.156200409 8.1484003067 8.2812004089  -999.250000  -999.250000
 3342.8940000 67.199996948 17.187500000 8.0781002045 7.8710999489  -999.250000  -999.250000
 3343.0464000 67.199996948 16.406200409 8.1953001022 7.1757998466  -999.250000  -999.250000
 3343.1987000 68.800003052 21.500000000 8.5703001022 7.1055002213  -999.250000  -999.250000
 3343.3513000 69.699996948 24.296899796 9.0000000000 7.4727001190  -999.250000  -999.250000
 3343.5037000 70.599998474 24.562500000 9.6406002045 8.1718997955  -999.250000  -999.250000
 3343.6560000 71.300003052 19.750000000 10.250000000 9.5859003067  -999.250000  -999.250000
 3343.8083000 72.599998474 16.703100204 10.921899796 11.304699898  -999.250000  -999.250000
 3343.9607000 71.099998474 18.578100204 12.289099693 13.492199898  -999.250000  -999.250000
 3344.1133000 71.300003052 21.265600204 13.929699898 15.757800102  -999.250000  -999.250000
 3344.2656000 72.099998474 21.515600204 15.171899796 17.718799591  -999.250000  -999.250000
 3344.4180000 72.099998474 22.875000000 15.781200409 18.859399796  -999.250000  -999.250000
 3344.5703000 72.900001526 18.843799591 14.679699898 16.625000000  -999.250000  -999.250000
 3344.7229000 73.000000000 20.250000000 12.921899796 13.468799591  -999.250000  -999.250000
 3344.8752000 76.000000000 18.062500000 11.921899796 10.828100204  -999.250000  -999.250000
 3345.0276000 75.000000000 22.062500000 11.296899796 9.4687995911  -999.250000  -999.250000
 3345.1799000 74.199996948 21.828100204 10.242199898 9.7578001022  -999.250000  -999.250000
 3345.3325000 75.099998474 23.687500000 9.0000000000 10.234399796  -999.250000  -999.250000
 3345.4849000 72.199996948 20.234399796 8.0703001022 9.7734003067  -999.250000  -999.250000
 3345.6372000 70.500000000 22.343799591 7.3944997787 8.5937995911  -999.250000  -999.250000
 3345.7896000 70.699996948 21.562500000 7.1406002045 7.4766001701  -999.250000  -999.250000
 3345.9419000 68.900001526 25.593799591 7.4141001701 6.8319997787  -999.250000  -999.250000
 3346.0945000 68.900001526 25.343799591 7.8944997787 6.7852001190  -999.250000  -999.250000
 3346.2468000 69.300003052 23.984399796 8.1875000000 7.6055002213  -999.250000  -999.250000
 3346.3992000 69.300003052 23.968799591 8.4296998978 8.9531002045  -999.250000  -999.250000
 3346.5515000 69.199996948 22.562500000 8.6953001022 9.8359003067  -999.250000  -999.250000
 3346.7041000 69.400001526 23.109399796 9.0156002045 10.578100204  -999.250000  -999.250000
 3346.8564000 69.800003052 21.250000000 10.054699898 11.359399796  -999.250000  -999.250000
 3347.0088000 70.599998474 23.140600204 12.078100204 12.335900307  -999.250000  -999.250000
 3347.1611000 70.500000000 22.343799591 14.351599693 14.031200409  -999.250000  -999.250000
 3347.3137000 71.699996948 24.187500000 16.156200409 16.156200409  -999.250000  -999.250000
 3347.4661000 72.000000000 22.812500000 17.781200409 18.359399796  -999.250000  -999.250000
 3347.6184000 70.500000000 19.578100204 18.890600204 19.937500000  -999.250000  -999.250000
 3347.7708000 70.199996948 18.546899796 19.000000000 20.953100204  -999.250000  -999.250000
 3347.9231000 70.199996948 18.500000000 19.000000000 21.171899796  -999.250000  -999.250000
 3348.0757000 71.400001526 21.375000000 18.375000000 20.062500000  -999.250000  -999.250000
 3348.2280000 72.099998474 21.109399796 17.156200409 17.515600204  -999.250000  -999.250000
 3348.3804000 72.800003052 17.609399796 16.609399796 15.007800102  -999.250000  -999.250000
 3348.5327000 73.500000000 18.078100204 17.218799591 13.390600204  -999.250000  -999.250000
 3348.6853000 73.199996948 16.984399796 17.671899796 13.296899796  -999.250000  -999.250000
 3348.8376000 71.199996948 19.656200409 18.203100204 15.195300102  -999.250000  -999.250000
 3348.9900000 69.500000000 18.484399796 18.296899796 17.359399796  -999.250000  -999.250000
 3349.1423000 68.599998474 17.687500000 17.093799591 18.375000000  -999.250000  -999.250000
 3349.2949000 68.599998474 17.140600204 15.453100204 17.921899796  -999.250000  -999.250000
 3349.4473000 69.800003052 17.140600204 13.210900307 14.937500000  -999.250000  -999.250000
 3349.5996000 71.199996948 19.312500000 10.648400307 10.656200409  -999.250000  -999.250000
 3349.7520000 71.400001526 21.875000000 8.8515996933 7.9022998810  -999.250000  -999.250000
 3349.9043000 72.599998474 27.203100204 8.0468997955 6.3750000000  -999.250000  -999.250000
 3350.0569000 72.400001526 28.781200409 7.4414000511 5.5938000679  -999.250000  -999.250000
 3350.2092000 73.000000000 27.609399796 6.8944997787 5.4727001190  -999.250000  -999.250000
 3350.3616000 73.099998474 26.046899796 6.3593997955 5.5391001701  -999.250000  -999.250000
 3350.5139000 72.900001526 23.921899796 5.9921998978 5.6210999489  -999.250000  -999.250000
 3350.6665000 73.500000000 27.203100204 5.8164000511 5.5507998466  -999.250000  -999.250000
 3350.8188000 73.599998474 27.437500000 5.8789000511 5.5311999321  -999.250000  -999.250000
 3350.9712000 73.300003052 30.671899796 6.1875000000 5.5977001190  -999.250000  -999.250000
 3351.1235000 71.400001526 31.843799591 6.7188000679 5.7421998978  -999.250000  -999.250000
 3351.2759000 70.300003052 32.093799591 7.0742001534 6.1250000000  -999.250000  -999.250000
 3351.4285000 69.599998474 32.906200409 7.2891001701 6.6483998299  -999.250000  -999.250000
 3351.5808000 68.199996948 29.500000000 7.3944997787 7.1796998978  -999.250000  -999.250000
 3351.7332000 69.800003052 26.406200409 7.3085999489 7.5156002045  -999.250000  -999.250000
 3351.8855000 66.800003052 22.375000000 7.1757998466 7.6796998978  -999.250000  -999.250000
 3352.0381000 66.699996948 22.921899796 6.9531002045 7.5352001190  -999.250000  -999.250000
 3352.1904000 66.199996948 21.968799591 6.4843997955 6.9296998978  -999.250000  -999.250000
 3352.3428000 65.900001526 21.703100204 5.8983998299 6.0625000000  -999.250000  -999.250000
 3352.4951000 66.099998474 20.625000000 5.3319997787 5.1132998466  -999.250000  -999.250000
 3352.6477000 68.500000000 27.671899796 4.7460999489 4.1953001022  -999.250000  -999.250000
 3352.8000000 70.800003052 39.187500000 4.2227001190 3.7070000172  -999.250000  -999.250000
 3352.9524000 73.500000000 49.375000000 3.7441000938 3.4628999233  -999.250000  -999.250000
 3353.1047000 78.500000000 57.906200409 3.3789000511 3.2188000679  -999.250000  -999.250000
 3353.2571000 78.199996948 54.406200409 3.1484000683 2.9491999149  -999.250000  -999.250000
 3353.4097000 80.300003052 56.531200409 3.0352001190 2.7441000938  -999.250000  -999.250000
 3353.5620000 79.400001526 51.156200409 3.0527000427 2.6758000851  -999.250000  -999.250000
 3353.7144000 78.800003052 51.437500000 3.1426000595 2.7832000256  -999.250000  -999.250000
 3353.8667000 77.800003052 46.062500000 3.2284998894 3.0272998810  -999.250000  -999.250000
 3354.0193000 75.900001526 45.281200409 3.2090001106 3.1875000000  -999.250000  -999.250000
 3354.1716000 76.199996948 45.875000000 3.2030999660 3.2715001106  -999.250000  -999.250000
 3354.3240000 77.800003052 46.406200409 3.3789000511 3.3457000256  -999.250000  -999.250000
