# LAS format log file from PETREL
# Project units are specified as depth units
#==================================================================
~Version information
VERS.   2.0:
WRAP.   NO:
#==================================================================
~Well
STRT .m      0.0000000000 :
STOP .m      3438.9060000 :
STEP .m     0.00000000 :
NULL .        -999.250000 :
COMP.           : COMPANY
WELL.  ISH1051   : WELL
FLD.            : FIELD
LOC.            : LOCATION
SRVC.           : SERVICE COMPANY
DATE.  Sunday, February 22 2015 15:16:31   : DATE
PROV.           : PROVINCE
UWI.      : UNIQUE WELL ID
API.            : API NUMBER
#==================================================================
~Curve
DEPT .m                   : DEPTH
SONI .us/ft               : SONI
GR .gAPI                  : GR
LLD .ohm.m                : LLD
LLM .ohm.m                : LLM
Acousticimpedance1 .kPa.s/m : Acoustic impedance 1
Reflectioncoefficients1 .  : Reflection coefficients 1
~Parameter
#==================================================================
~Ascii
# ...
 3420.7705000 61.500000000 37.031200409 4.9921998978 8.5546998978  -999.250000  -999.250000
 3420.9229000 61.500000000 37.031200409 4.9921998978 8.5546998978  -999.250000  -999.250000
 3421.0752000 61.500000000 37.031200409 4.9882998466 8.5546998978  -999.250000  -999.250000
 3421.2275000 61.500000000 37.031200409 4.9921998978 8.5625000000  -999.250000  -999.250000
 3421.3799000 61.500000000 37.031200409 4.9882998466 8.5546998978  -999.250000  -999.250000
 3421.5325000 61.500000000 37.031200409 4.9882998466 8.5625000000  -999.250000  -999.250000
 3421.6848000 61.500000000 37.031200409 4.9882998466 8.5703001022  -999.250000  -999.250000
 3421.8372000 61.500000000 37.031200409 4.9921998978 8.5546998978  -999.250000  -999.250000
 3421.9895000 61.500000000 37.031200409 4.9882998466 8.5703001022  -999.250000  -999.250000
 3422.1421000 61.500000000 37.031200409 4.9882998466 8.5546998978  -999.250000  -999.250000
 3422.2944000 61.500000000 37.031200409 4.9882998466 8.5703001022  -999.250000  -999.250000
 3422.4468000 61.500000000 37.031200409 4.9882998466 8.5703001022  -999.250000  -999.250000
 3422.5991000 61.500000000 37.031200409 4.9882998466 8.5546998978  -999.250000  -999.250000
 3422.7517000 61.500000000 37.031200409 4.9882998466 8.5625000000  -999.250000  -999.250000
 3422.9041000 61.500000000 37.031200409 4.9882998466 8.5625000000  -999.250000  -999.250000
 3423.0564000 61.500000000 37.031200409 4.9882998466 8.5625000000  -999.250000  -999.250000
 3423.2087000 61.500000000 37.031200409 4.9882998466 8.5703001022  -999.250000  -999.250000
 3423.3611000 61.500000000 37.031200409 4.9882998466 8.5625000000  -999.250000  -999.250000
 3423.5137000 61.500000000 37.031200409 4.9882998466 8.5703001022  -999.250000  -999.250000
 3423.6660000 61.500000000 37.031200409 4.9882998466 8.5703001022  -999.250000  -999.250000
 3423.8184000 61.500000000 37.031200409 4.9882998466 8.5781002045  -999.250000  -999.250000
 3423.9707000 61.500000000 37.031200409 4.9882998466 8.5781002045  -999.250000  -999.250000
 3424.1233000 61.500000000 37.031200409 4.9882998466 8.5781002045  -999.250000  -999.250000
 3424.2756000 61.500000000 37.031200409 4.9882998466 8.5781002045  -999.250000  -999.250000
 3424.4280000 61.500000000 37.031200409 4.9882998466 8.5781002045  -999.250000  -999.250000
 3424.5803000 61.500000000 37.031200409 4.9882998466 8.5781002045  -999.250000  -999.250000
 3424.7329000 61.500000000 37.031200409 4.9882998466 8.5781002045  -999.250000  -999.250000
 3424.8853000 61.500000000 37.031200409 4.9882998466 8.5781002045  -999.250000  -999.250000
 3425.0376000 61.500000000 37.031200409 4.9882998466 8.5781002045  -999.250000  -999.250000
 3425.1899000 61.500000000 37.031200409 4.9882998466 8.5781002045  -999.250000  -999.250000
 3425.3423000 61.500000000 37.031200409 4.9882998466 8.5781002045  -999.250000  -999.250000
 3425.4949000 61.500000000 37.031200409 4.9882998466 8.5781002045  -999.250000  -999.250000
 3425.6472000 61.500000000 37.031200409 4.9882998466 8.5781002045  -999.250000  -999.250000
 3425.7996000 61.500000000 37.031200409 4.9882998466 8.5781002045  -999.250000  -999.250000
 3425.9519000 61.500000000 37.031200409 4.9882998466 8.5781002045  -999.250000  -999.250000
 3426.1045000 61.500000000 37.031200409 4.9882998466 8.5781002045  -999.250000  -999.250000
 3426.2568000 61.500000000 37.031200409 4.9882998466 8.5781002045  -999.250000  -999.250000
 3426.4092000 61.500000000 37.031200409 4.9882998466 8.5781002045  -999.250000  -999.250000
 3426.5615000 61.500000000 37.031200409 4.9882998466 8.5781002045  -999.250000  -999.250000
 3426.7141000 61.500000000 37.031200409 4.9882998466 8.5781002045  -999.250000  -999.250000
 3426.8665000 61.500000000 37.031200409 4.9882998466 8.5781002045  -999.250000  -999.250000
 3427.0188000 61.500000000 37.031200409 4.9882998466 8.5781002045  -999.250000  -999.250000
 3427.1711000 61.500000000 37.031200409 4.9882998466 8.5781002045  -999.250000  -999.250000
 3427.3235000 61.500000000 37.031200409 4.9882998466 8.5781002045  -999.250000  -999.250000
 3427.4761000 61.500000000 37.031200409 4.9882998466 8.5781002045  -999.250000  -999.250000
 3427.6284000 61.500000000 37.031200409 4.9882998466 8.5781002045  -999.250000  -999.250000
 3427.7808000 61.500000000 37.031200409 4.9882998466 8.5781002045  -999.250000  -999.250000
 3427.9331000 61.500000000 37.031200409 4.9882998466 8.5781002045  -999.250000  -999.250000
 3428.0857000 61.500000000 37.031200409 4.9882998466 8.5781002045  -999.250000  -999.250000
 3428.2380000 61.500000000 37.031200409 4.9882998466 8.5781002045  -999.250000  -999.250000
 3428.3904000 61.500000000 37.031200409 4.9882998466 8.5781002045  -999.250000  -999.250000
 3428.5427000 61.500000000 37.031200409 4.9882998466 8.5781002045  -999.250000  -999.250000
 3428.6953000 61.500000000 37.031200409 4.9882998466 8.5781002045  -999.250000  -999.250000
 3428.8477000 61.500000000 37.031200409 4.9882998466 8.5781002045  -999.250000  -999.250000
 3429.0000000 61.500000000 37.031200409 4.9882998466 8.5781002045  -999.250000  -999.250000
 3429.1523000 61.500000000 37.031200409 4.9882998466 8.5781002045  -999.250000  -999.250000
 3429.3047000 61.500000000 37.031200409 4.9882998466 8.5781002045  -999.250000  -999.250000
 3429.4573000 61.500000000 37.031200409 4.9882998466 8.5781002045  -999.250000  -999.250000
 3429.6096000 61.500000000 37.031200409 4.9882998466 8.5781002045  -999.250000  -999.250000
 3429.7620000 61.500000000 37.031200409 4.9882998466 8.5781002045  -999.250000  -999.250000
 3429.9143000 61.500000000 37.031200409 4.9882998466 8.5781002045  -999.250000  -999.250000
 3430.0669000 61.500000000 37.031200409 4.9882998466 8.5781002045  -999.250000  -999.250000
 3430.2192000 61.500000000 37.031200409 4.9882998466 8.5781002045  -999.250000  -999.250000
 3430.3716000 61.500000000 37.031200409 4.9882998466 8.5781002045  -999.250000  -999.250000
 3430.5239000 61.500000000 37.031200409 4.9882998466 8.5781002045  -999.250000  -999.250000
 3430.6765000 61.500000000 37.031200409 4.9882998466 8.5781002045  -999.250000  -999.250000
 3430.8289000 61.500000000 37.031200409 4.9882998466 8.5781002045  -999.250000  -999.250000
 3430.9812000 61.500000000 37.031200409 4.9882998466 8.5781002045  -999.250000  -999.250000
 3431.1335000 61.500000000 37.031200409 4.9882998466 8.5781002045  -999.250000  -999.250000
 3431.2859000 61.500000000 37.031200409 4.9882998466 8.5781002045  -999.250000  -999.250000
 3431.4385000 61.500000000 37.031200409 4.9882998466 8.5781002045  -999.250000  -999.250000
 3431.5908000 61.500000000 37.031200409 4.9882998466 8.5781002045  -999.250000  -999.250000
 3431.7432000 61.500000000 37.031200409 4.9882998466 8.5781002045  -999.250000  -999.250000
 3431.8955000 61.500000000 37.031200409 4.9882998466 8.5781002045  -999.250000  -999.250000
 3432.0481000 61.500000000 37.031200409 4.9882998466 8.5781002045  -999.250000  -999.250000
 3432.2004000 61.500000000 37.031200409 4.9882998466 8.5781002045  -999.250000  -999.250000
 3432.3528000 61.500000000 37.031200409 4.9882998466 8.5781002045  -999.250000  -999.250000
 3432.5051000 61.500000000 37.031200409 4.9882998466 8.5781002045  -999.250000  -999.250000
 3432.6577000 61.500000000 37.031200409 4.9882998466 8.5781002045  -999.250000  -999.250000
 3432.8101000 61.500000000 37.031200409 4.9882998466 8.5781002045  -999.250000  -999.250000
 3432.9624000 61.500000000 37.031200409 4.9882998466 8.5781002045  -999.250000  -999.250000
 3433.1147000 61.500000000 37.031200409 4.9882998466 8.5781002045  -999.250000  -999.250000
 3433.2671000 61.500000000 37.031200409 4.9882998466 8.5781002045  -999.250000  -999.250000
 3433.4197000 61.500000000 37.031200409 4.9882998466 8.5781002045  -999.250000  -999.250000
 3433.5720000 61.500000000 37.031200409 4.9882998466 8.5781002045  -999.250000  -999.250000
 3433.7244000 61.500000000 37.031200409 4.9882998466 8.5781002045  -999.250000  -999.250000
 3433.8767000 61.500000000 37.031200409 4.9882998466 8.5781002045  -999.250000  -999.250000
